$GPRMC,084117.00,A,1907.92196,N,07255.06609,E,0.008,,290512,,,A*78
$GPVTG,,T,,M,0.008,N,0.016,K,A*2C
$GPGGA,084117.00,1907.92196,N,07255.06609,E,1,12,0.71,61.5,M,-65.6,M,,*4E
$GPGSA,A,3,23,13,19,07,03,10,20,06,08,16,32,11,1.35,0.71,1.14*03
$GPGSV,4,1,15,01,03,163,24,03,35,060,45,06,21,052,39,07,37,331,39*7A
$GPGSV,4,2,15,08,15,295,40,10,26,289,37,11,14,149,39,13,65,355,41*7B
$GPGSV,4,3,15,16,10,037,28,19,45,107,44,20,23,187,35,23,71,107,43*70
$GPGSV,4,4,15,28,17,232,,32,09,167,31,40,60,224,45*4F
$GPGLL,1907.92196,N,07255.06609,E,084117.00,A,A*64

$GPRMC,084118.00,A,1907.92193,N,07255.06607,E,0.012,,290512,,,A*77
$GPVTG,,T,,M,0.012,N,0.022,K,A*20
$GPGGA,084118.00,1907.92193,N,07255.06607,E,1,12,0.71,61.3,M,-65.6,M,,*4C
$GPGSA,A,3,23,13,19,07,03,10,20,06,08,16,32,11,1.35,0.71,1.14*03
$GPGSV,4,1,15,01,03,163,25,03,35,060,45,06,21,052,40,07,37,331,39*75
$GPGSV,4,2,15,08,15,295,41,10,26,289,37,11,14,149,38,13,65,355,41*7B
$GPGSV,4,3,15,16,10,037,26,19,45,107,44,20,23,187,34,23,71,107,43*7F
$GPGSV,4,4,15,28,17,232,,32,09,167,32,40,60,224,45*4C
$GPGLL,1907.92193,N,07255.06607,E,084118.00,A,A*60

$GPRMC,084119.00,A,1907.92189,N,07255.06606,E,0.007,,290512,,,A*78
$GPVTG,,T,,M,0.007,N,0.014,K,A*21
$GPGGA,084119.00,1907.92189,N,07255.06606,E,1,12,0.81,61.1,M,-65.6,M,,*4A
$GPGSA,A,3,23,13,19,07,03,10,20,06,08,16,32,11,1.56,0.81,1.34*0B
$GPGSV,4,1,15,01,03,163,24,03,35,060,45,06,21,052,40,07,37,331,39*74
$GPGSV,4,2,15,08,15,295,40,10,26,289,37,11,14,149,38,13,65,355,41*7A
$GPGSV,4,3,15,16,10,037,25,19,45,107,44,20,23,187,34,23,71,107,43*7C
$GPGSV,4,4,15,28,17,232,,32,09,167,31,40,60,224,44*4E
$GPGLL,1907.92189,N,07255.06606,E,084119.00,A,A*6B

$GPRMC,084120.00,A,1907.92187,N,07255.06606,E,0.004,,290512,,,A*7F
$GPVTG,,T,,M,0.004,N,0.007,K,A*20
$GPGGA,084120.00,1907.92187,N,07255.06606,E,1,12,0.81,60.8,M,-65.6,M,,*46
$GPGSA,A,3,23,13,19,07,03,10,20,06,08,16,32,11,1.56,0.81,1.34*0B
$GPGSV,4,1,15,01,03,163,21,03,35,060,44,06,21,052,39,07,37,331,39*7E
$GPGSV,4,2,15,08,15,295,40,10,26,289,37,11,14,149,39,13,65,355,41*7B
$GPGSV,4,3,15,16,10,037,22,19,45,107,43,20,23,187,36,23,71,107,42*7F
$GPGSV,4,4,15,28,17,232,,32,09,167,31,40,60,224,44*4E
$GPGLL,1907.92187,N,07255.06606,E,084120.00,A,A*6F

$GPRMC,084121.00,A,1907.92186,N,07255.06607,E,0.008,,290512,,,A*72
$GPVTG,,T,,M,0.008,N,0.015,K,A*2F
$GPGGA,084121.00,1907.92186,N,07255.06607,E,1,12,0.81,60.6,M,-65.6,M,,*49
$GPGSA,A,3,23,13,19,07,03,10,20,06,08,16,32,11,1.56,0.81,1.34*0B
$GPGSV,4,1,15,01,03,163,20,03,35,060,44,06,21,052,40,07,37,331,38*70
$GPGSV,4,2,15,08,15,295,40,10,26,289,39,11,14,149,39,13,65,355,40*74
$GPGSV,4,3,15,16,10,037,23,19,45,107,44,20,23,187,34,23,71,107,42*7B
$GPGSV,4,4,15,28,17,232,,32,09,167,33,40,60,224,45*4D
$GPGLL,1907.92186,N,07255.06607,E,084121.00,A,A*6E

$GPRMC,084122.00,A,1907.92184,N,07255.06609,E,0.009,,290512,,,A*7C
$GPVTG,,T,,M,0.009,N,0.017,K,A*2C
$GPGGA,084122.00,1907.92184,N,07255.06609,E,1,12,0.81,60.3,M,-65.6,M,,*43
$GPGSA,A,3,23,13,19,07,03,10,20,06,08,16,32,11,1.56,0.81,1.34*0B
$GPGSV,4,1,15,01,03,163,23,03,35,060,43,06,21,052,40,07,37,331,39*75
$GPGSV,4,2,15,08,15,295,39,10,26,289,39,11,14,149,39,13,65,355,39*74
$GPGSV,4,3,15,16,10,037,23,19,45,107,44,20,23,187,35,23,71,107,42*7A
$GPGSV,4,4,15,28,17,232,,32,09,167,34,40,60,224,45*4A
$GPGLL,1907.92184,N,07255.06609,E,084122.00,A,A*61
$GPRMC,084123.00,A,1907.92186,N,07255.06613,E,0.007,,290512,,,A*7A
$GPVTG,,T,,M,0.007,N,0.012,K,A*27
$GPGGA,084123.00,1907.92186,N,07255.06613,E,1,12,0.81,60.1,M,-65.6,M,,*49
$GPGSA,A,3,23,13,19,07,03,10,20,06,08,16,32,11,1.56,0.81,1.34*0B
$GPGSV,4,1,15,01,03,163,23,03,35,060,44,06,21,052,39,07,37,331,39*7C
$GPGSV,4,2,15,08,15,295,40,10,26,289,39,11,14,149,40,13,65,355,38*75
$GPGSV,4,3,15,16,10,037,25,19,45,107,44,20,23,187,37,23,71,107,41*7D
$GPGSV,4,4,15,28,17,232,,32,09,167,34,40,60,224,44*4B
$GPGLL,1907.92186,N,07255.06613,E,084123.00,A,A*69
$GPRMC,084124.00,A,1907.92187,N,07255.06615,E,0.014,,290512,,,A*78
$GPVTG,,T,,M,0.014,N,0.026,K,A*22
$GPGGA,084124.00,1907.92187,N,07255.06615,E,1,12,0.81,59.8,M,-65.6,M,,*4A
$GPGSA,A,3,23,13,19,07,03,10,20,06,08,16,32,11,1.56,0.81,1.34*0B
$GPGSV,4,1,15,01,03,163,23,03,35,060,44,06,21,052,39,07,37,331,39*7C
$GPGSV,4,2,15,08,15,295,40,10,26,289,39,11,14,149,40,13,65,355,39*74
$GPGSV,4,3,15,16,10,037,26,19,45,107,44,20,23,187,37,23,71,107,41*7E
$GPGSV,4,4,15,28,17,232,,32,09,167,34,40,60,224,44*4B
$GPGLL,1907.92187,N,07255.06615,E,084124.00,A,A*69
$GPRMC,084125.00,A,1907.92188,N,07255.06614,E,0.017,,290512,,,A*74
$GPVTG,,T,,M,0.017,N,0.031,K,A*27
$GPGGA,084125.00,1907.92188,N,07255.06614,E,1,12,0.81,59.5,M,-65.6,M,,*48
$GPGSA,A,3,23,13,19,07,03,10,20,06,08,16,32,11,1.56,0.81,1.34*0B
$GPGSV,4,1,15,01,03,163,23,03,35,060,44,06,21,052,39,07,37,331,38*7D
$GPGSV,4,2,15,08,15,295,40,10,26,289,35,11,14,149,38,13,65,355,39*77
$GPGSV,4,3,15,16,10,037,25,19,45,107,44,20,23,187,36,23,71,107,42*7F
$GPGSV,4,4,15,28,17,232,,32,09,167,34,40,60,224,44*4B
$GPGLL,1907.92188,N,07255.06614,E,084125.00,A,A*66
$GPRMC,084126.00,A,1907.92189,N,07255.06614,E,0.014,,290512,,,A*75
$GPVTG,,T,,M,0.014,N,0.026,K,A*22
$GPGGA,084126.00,1907.92189,N,07255.06614,E,1,12,0.81,59.4,M,-65.6,M,,*4B
$GPGSA,A,3,23,13,19,07,03,10,20,06,08,16,32,11,1.56,0.81,1.34*0B
$GPGSV,4,1,15,01,03,163,24,03,35,060,43,06,21,052,40,07,37,331,42*7E
$GPGSV,4,2,15,08,15,295,42,10,26,289,34,11,14,149,41,13,65,355,38*7B
$GPGSV,4,3,15,16,10,037,25,19,45,107,45,20,23,187,37,23,71,107,42*7F
$GPGSV,4,4,15,28,17,232,,32,09,167,30,40,60,224,44*4F
$GPGLL,1907.92189,N,07255.06614,E,084126.00,A,A*64
$GPRMC,084127.00,A,1907.92191,N,07255.06615,E,0.023,,290512,,,A*78
$GPVTG,,T,,M,0.023,N,0.043,K,A*25
$GPGGA,084127.00,1907.92191,N,07255.06615,E,1,12,0.81,59.2,M,-65.6,M,,*44
$GPGSA,A,3,23,13,19,07,03,10,20,06,08,16,32,11,1.56,0.81,1.34*0B
$GPGSV,4,1,15,01,03,163,24,03,35,060,43,06,21,052,39,07,37,331,41*73
$GPGSV,4,2,15,08,15,295,41,10,26,289,35,11,14,149,40,13,65,355,39*79
$GPGSV,4,3,15,16,10,037,28,19,45,107,43,20,23,187,37,23,71,107,41*77
$GPGSV,4,4,15,28,17,232,,32,09,167,33,40,60,224,45*4D
$GPGLL,1907.92191,N,07255.06615,E,084127.00,A,A*6D
$GPRMC,084128.00,A,1907.92189,N,07255.06617,E,0.008,,290512,,,A*75
$GPVTG,,T,,M,0.008,N,0.016,K,A*2C
$GPGGA,084128.00,1907.92189,N,07255.06617,E,1,12,0.81,59.0,M,-65.6,M,,*42
$GPGSA,A,3,23,13,19,07,03,10,20,06,08,16,32,11,1.56,0.81,1.34*0B
$GPGSV,4,1,15,01,03,163,23,03,35,060,44,06,21,052,40,07,37,331,42*7E
$GPGSV,4,2,15,08,15,295,40,10,26,289,37,11,14,149,40,13,65,355,39*7A
$GPGSV,4,3,15,16,10,037,26,19,45,107,44,20,23,187,35,23,71,107,41*7C
$GPGSV,4,4,15,28,17,232,,32,09,167,33,40,60,224,44*4C
$GPGLL,1907.92189,N,07255.06617,E,084128.00,A,A*69
$GPRMC,084129.00,A,1907.92188,N,07255.06620,E,0.029,,290512,,,A*72
$GPVTG,,T,,M,0.029,N,0.053,K,A*2E
$GPGGA,084129.00,1907.92188,N,07255.06620,E,1,12,0.81,58.7,M,-65.6,M,,*40
$GPGSA,A,3,23,13,19,07,03,10,20,06,08,16,32,11,1.56,0.81,1.34*0B
$GPGSV,4,1,15,01,03,163,24,03,35,060,44,06,21,052,40,07,37,331,41*7A
$GPGSV,4,2,15,08,15,295,41,10,26,289,39,11,14,149,40,13,65,355,39*75
$GPGSV,4,3,15,16,10,037,23,19,45,107,44,20,23,187,35,23,71,107,41*79
$GPGSV,4,4,15,28,17,232,27,32,09,167,34,40,60,224,44*4E
$GPGLL,1907.92188,N,07255.06620,E,084129.00,A,A*6D
$GPRMC,084130.00,A,1907.92187,N,07255.06623,E,0.004,,290512,,,A*79
$GPVTG,,T,,M,0.004,N,0.008,K,A*2F
$GPGGA,084130.00,1907.92187,N,07255.06623,E,1,12,0.81,58.6,M,-65.6,M,,*45
$GPGSA,A,3,23,13,19,07,03,10,20,06,08,16,32,11,1.56,0.81,1.34*0B
$GPGSV,4,1,15,01,03,163,23,03,35,060,44,06,21,052,40,07,37,331,41*7D
$GPGSV,4,2,15,08,15,295,40,10,26,289,39,11,14,149,40,13,65,355,39*74
$GPGSV,4,3,15,16,10,037,22,19,45,107,45,20,23,187,36,23,71,107,40*7B
$GPGSV,4,4,15,28,17,232,26,32,09,167,34,40,60,224,44*4F
$GPGLL,1907.92187,N,07255.06623,E,084130.00,A,A*69
$GPRMC,084131.00,A,1907.92186,N,07255.06626,E,0.009,,290512,,,A*71
$GPVTG,,T,,M,0.009,N,0.017,K,A*2C
$GPGGA,084131.00,1907.92186,N,07255.06626,E,1,12,0.81,58.5,M,-65.6,M,,*43
$GPGSA,A,3,23,13,19,07,03,10,20,06,08,16,32,11,1.56,0.81,1.33*0C
$GPGSV,4,1,15,01,03,163,24,03,35,060,44,06,21,052,39,07,37,331,41*74
$GPGSV,4,2,15,08,15,295,40,10,26,289,39,11,14,149,40,13,65,355,39*74
$GPGSV,4,3,15,16,10,037,25,19,45,107,44,20,23,187,36,23,71,107,40*7D
$GPGSV,4,4,15,28,17,232,25,32,09,167,34,40,60,224,45*4D
$GPGLL,1907.92186,N,07255.06626,E,084131.00,A,A*6C
$GPRMC,084132.00,A,1907.92185,N,07255.06628,E,0.010,,290512,,,A*77
$GPVTG,,T,,M,0.010,N,0.018,K,A*2B
$GPGGA,084132.00,1907.92185,N,07255.06628,E,1,12,0.81,58.4,M,-65.6,M,,*4C
$GPGSA,A,3,23,13,19,07,03,10,20,06,08,16,32,11,1.56,0.81,1.33*0C
$GPGSV,4,1,15,01,03,163,25,03,35,060,44,06,21,052,39,07,37,331,42*76
$GPGSV,4,2,15,08,15,295,40,10,26,289,39,11,14,149,40,13,65,355,39*74
$GPGSV,4,3,15,16,10,037,26,19,45,107,44,20,23,187,36,23,71,107,40*7E
$GPGSV,4,4,15,28,17,232,24,32,09,167,34,40,60,224,45*4C
$GPGLL,1907.92185,N,07255.06628,E,084132.00,A,A*62
$GPRMC,084133.00,A,1907.92183,N,07255.06629,E,0.026,,290512,,,A*74
$GPVTG,,T,,M,0.026,N,0.048,K,A*2B
$GPGGA,084133.00,1907.92183,N,07255.06629,E,1,12,0.81,58.3,M,-65.6,M,,*4D
$GPGSA,A,3,23,13,19,07,03,10,20,06,08,16,32,11,1.56,0.81,1.33*0C
$GPGSV,4,1,15,01,03,163,25,03,35,060,44,06,21,052,39,07,37,331,40*74
$GPGSV,4,2,15,08,15,295,38,10,26,289,38,11,14,149,40,13,65,355,39*7A
$GPGSV,4,3,15,16,10,037,26,19,45,107,44,20,23,187,36,23,71,107,40*7E
$GPGSV,4,4,15,28,17,232,24,32,09,167,34,40,60,224,44*4D
$GPGLL,1907.92183,N,07255.06629,E,084133.00,A,A*64
$GPRMC,084134.00,A,1907.92182,N,07255.06628,E,0.010,,290512,,,A*76
$GPVTG,,T,,M,0.010,N,0.019,K,A*2A
$GPGGA,084134.00,1907.92182,N,07255.06628,E,1,12,0.81,58.2,M,-65.6,M,,*4B
$GPGSA,A,3,23,13,19,07,03,10,20,06,08,16,32,11,1.56,0.81,1.33*0C
$GPGSV,4,1,15,01,03,163,24,03,35,060,45,06,21,052,39,07,37,331,40*74
$GPGSV,4,2,15,08,15,295,39,10,26,289,37,11,14,149,39,13,65,355,38*7B
$GPGSV,4,3,15,16,10,037,25,19,45,107,44,20,23,187,36,23,71,107,41*7C
$GPGSV,4,4,15,28,17,232,,32,09,167,34,40,60,224,43*4C
$GPGLL,1907.92182,N,07255.06628,E,084134.00,A,A*63
$GPRMC,084135.00,A,1907.92183,N,07255.06629,E,0.004,,290512,,,A*72
$GPVTG,,T,,M,0.004,N,0.007,K,A*20
$GPGGA,084135.00,1907.92183,N,07255.06629,E,1,12,0.81,58.2,M,-65.6,M,,*4A
$GPGSA,A,3,23,13,19,07,03,10,20,06,08,16,32,11,1.56,0.81,1.33*0C
$GPGSV,4,1,15,01,03,163,23,03,35,060,45,06,21,052,39,07,37,331,40*73
$GPGSV,4,2,15,08,15,295,39,10,26,289,39,11,14,149,39,13,65,355,38*75
$GPGSV,4,3,15,16,10,037,25,19,45,107,44,20,23,187,36,23,71,107,41*7C
$GPGSV,4,4,15,28,17,232,,32,09,167,35,40,60,224,45*4B
$GPGLL,1907.92183,N,07255.06629,E,084135.00,A,A*62
$GPRMC,084136.00,A,1907.92185,N,07255.06630,E,0.011,,290512,,,A*7B
$GPVTG,,T,,M,0.011,N,0.020,K,A*21
$GPGGA,084136.00,1907.92185,N,07255.06630,E,1,12,0.81,58.1,M,-65.6,M,,*44
$GPGSA,A,3,23,13,19,07,03,10,20,06,08,16,32,11,1.56,0.81,1.33*0C
$GPGSV,4,1,15,01,03,163,22,03,35,060,45,06,21,052,39,07,37,331,40*72
$GPGSV,4,2,15,08,15,295,40,10,26,289,39,11,14,149,39,13,65,355,38*7B
$GPGSV,4,3,15,16,10,037,22,19,45,107,44,20,23,187,36,23,71,107,41*7B
$GPGSV,4,4,15,28,17,232,27,32,09,167,35,40,60,224,45*4E
$GPGLL,1907.92185,N,07255.06630,E,084136.00,A,A*6F
$GPRMC,084137.00,A,1907.92188,N,07255.06630,E,0.011,,290512,,,A*77
$GPVTG,,T,,M,0.011,N,0.021,K,A*20
$GPGGA,084137.00,1907.92188,N,07255.06630,E,1,12,0.81,58.1,M,-65.6,M,,*48
$GPGSA,A,3,23,13,19,07,03,10,20,06,08,16,32,11,1.56,0.81,1.33*0C
$GPGSV,4,1,15,01,03,163,23,03,35,060,45,06,21,052,39,07,37,331,40*73
$GPGSV,4,2,15,08,15,295,40,10,26,289,39,11,14,149,39,13,65,355,38*7B
$GPGSV,4,3,15,16,10,037,20,19,45,107,44,20,23,187,36,23,71,107,41*79
$GPGSV,4,4,15,28,17,232,26,32,09,167,35,40,60,224,45*4F
$GPGLL,1907.92188,N,07255.06630,E,084137.00,A,A*63
$GPRMC,084138.00,A,1907.92188,N,07255.06631,E,0.012,,290512,,,A*7A
$GPVTG,,T,,M,0.012,N,0.021,K,A*23
$GPGGA,084138.00,1907.92188,N,07255.06631,E,1,12,0.81,58.1,M,-65.6,M,,*46
$GPGSA,A,3,23,13,19,07,03,10,20,06,08,16,32,11,1.56,0.81,1.33*0C
$GPGSV,4,1,15,01,03,163,24,03,35,060,45,06,21,052,39,07,37,331,39*7A
$GPGSV,4,2,15,08,15,295,40,10,26,289,39,11,14,149,39,13,65,355,37*74
$GPGSV,4,3,15,16,10,037,17,19,45,107,44,20,23,187,35,23,71,107,40*7F
$GPGSV,4,4,15,28,17,232,26,32,09,167,35,40,60,224,44*4E
$GPGLL,1907.92188,N,07255.06631,E,084138.00,A,A*6D
$GPRMC,084139.00,A,1907.92188,N,07255.06632,E,0.006,,290512,,,A*7D
$GPVTG,,T,,M,0.006,N,0.011,K,A*25
$GPGGA,084139.00,1907.92188,N,07255.06632,E,1,12,0.81,58.1,M,-65.6,M,,*44
$GPGSA,A,3,23,13,19,07,03,10,20,06,08,16,32,11,1.56,0.81,1.33*0C
$GPGSV,4,1,15,01,03,163,26,03,35,060,45,06,21,052,39,07,37,331,39*78
$GPGSV,4,2,15,08,15,295,40,10,26,289,39,11,14,149,39,13,65,355,37*74
$GPGSV,4,3,15,16,10,037,16,19,45,107,44,20,23,187,34,23,71,107,40*7F
$GPGSV,4,4,15,28,17,232,26,32,09,167,34,40,60,224,44*4F
$GPGLL,1907.92188,N,07255.06632,E,084139.00,A,A*6F
$GPRMC,084140.00,A,1907.92188,N,07255.06632,E,0.011,,290512,,,A*75
$GPVTG,,T,,M,0.011,N,0.020,K,A*21
$GPGGA,084140.00,1907.92188,N,07255.06632,E,1,12,0.81,58.1,M,-65.6,M,,*4A
$GPGSA,A,3,23,13,19,07,03,10,20,06,08,16,32,11,1.56,0.81,1.33*0C
$GPGSV,4,1,15,01,03,163,25,03,35,060,45,06,21,052,38,07,37,331,39*7A
$GPGSV,4,2,15,08,15,295,40,10,26,289,40,11,14,149,39,13,65,355,38*75
$GPGSV,4,3,15,16,10,037,19,19,45,107,44,20,23,187,34,23,71,107,41*71
$GPGSV,4,4,15,28,17,232,26,32,09,167,35,40,60,224,44*4E
$GPGLL,1907.92188,N,07255.06632,E,084140.00,A,A*61
$GPRMC,084141.00,A,1907.92189,N,07255.06633,E,0.011,,290512,,,A*74
$GPVTG,,T,,M,0.011,N,0.021,K,A*20
$GPGGA,084141.00,1907.92189,N,07255.06633,E,1,12,0.81,58.1,M,-65.6,M,,*4B
$GPGSA,A,3,23,13,19,07,03,10,20,06,08,16,32,11,1.56,0.81,1.33*0C
$GPGSV,4,1,15,01,03,163,25,03,35,060,45,06,21,052,38,07,37,331,39*7A
$GPGSV,4,2,15,08,15,295,40,10,26,289,40,11,14,149,38,13,65,355,37*7B
$GPGSV,4,3,15,16,10,037,21,19,45,107,44,20,23,187,34,23,71,107,41*7A
$GPGSV,4,4,15,28,17,232,26,32,09,167,35,40,60,224,44*4E
$GPGLL,1907.92189,N,07255.06633,E,084141.00,A,A*60
$GPRMC,084142.00,A,1907.92192,N,07255.06633,E,0.001,,290512,,,A*7C
$GPVTG,,T,,M,0.001,N,0.003,K,A*21
$GPGGA,084142.00,1907.92192,N,07255.06633,E,1,12,0.81,58.1,M,-65.6,M,,*42
$GPGSA,A,3,23,13,19,07,03,10,20,06,08,16,32,11,1.56,0.81,1.33*0C
$GPGSV,4,1,15,01,03,163,25,03,35,060,44,06,21,052,38,07,37,331,38*7A
$GPGSV,4,2,15,08,15,295,40,10,26,289,40,11,14,149,38,13,65,355,37*7B
$GPGSV,4,3,15,16,10,037,25,19,45,107,43,20,23,187,33,23,71,107,42*7D
$GPGSV,4,4,15,28,17,232,26,32,09,167,36,40,60,224,45*4C
$GPGLL,1907.92192,N,07255.06633,E,084142.00,A,A*69
$GPRMC,084143.00,A,1907.92195,N,07255.06635,E,0.007,,290512,,,A*7A
$GPVTG,,T,,M,0.007,N,0.013,K,A*26
$GPGGA,084143.00,1907.92195,N,07255.06635,E,1,12,0.81,58.1,M,-65.6,M,,*42
$GPGSA,A,3,23,13,19,07,03,10,20,06,08,16,32,11,1.56,0.81,1.33*0C
$GPGSV,4,1,15,01,03,163,26,03,35,060,44,06,21,052,38,07,37,331,38*79
$GPGSV,4,2,15,08,15,295,39,10,26,289,40,11,14,149,38,13,65,355,37*75
$GPGSV,4,3,15,16,10,037,27,19,45,107,44,20,23,187,33,23,71,107,42*78
$GPGSV,4,4,15,28,17,232,26,32,09,167,35,40,60,224,45*4F
$GPGLL,1907.92195,N,07255.06635,E,084143.00,A,A*69
$GPRMC,084144.00,A,1907.92198,N,07255.06635,E,0.007,,290512,,,A*70
$GPVTG,,T,,M,0.007,N,0.012,K,A*27
$GPGGA,084144.00,1907.92198,N,07255.06635,E,1,12,0.81,58.1,M,-65.6,M,,*48
$GPGSA,A,3,23,13,19,07,03,10,20,06,08,16,32,11,1.56,0.81,1.33*0C
$GPGSV,4,1,15,01,03,163,26,03,35,060,44,06,21,052,38,07,37,331,39*78
$GPGSV,4,2,15,08,15,295,39,10,26,289,40,11,14,149,38,13,65,355,37*75
$GPGSV,4,3,15,16,10,037,28,19,45,107,44,20,23,187,34,23,71,107,42*70
$GPGSV,4,4,15,28,17,232,25,32,09,167,35,40,60,224,45*4C
$GPGLL,1907.92198,N,07255.06635,E,084144.00,A,A*63
$GPRMC,084145.00,A,1907.92200,N,07255.06634,E,0.011,,290512,,,A*75
$GPVTG,,T,,M,0.011,N,0.021,K,A*20
$GPGGA,084145.00,1907.92200,N,07255.06634,E,1,12,0.81,58.1,M,-65.6,M,,*4A
$GPGSA,A,3,23,13,19,07,03,10,20,06,08,16,32,11,1.56,0.81,1.33*0C
$GPGSV,4,1,15,01,03,163,25,03,35,060,44,06,21,052,38,07,37,331,38*7A
$GPGSV,4,2,15,08,15,295,40,10,26,289,41,11,14,149,37,13,65,355,37*75
$GPGSV,4,3,15,16,10,037,27,19,45,107,44,20,23,187,32,23,71,107,42*79
$GPGSV,4,4,15,28,17,232,,32,09,167,35,40,60,224,44*4A
$GPGLL,1907.92200,N,07255.06634,E,084145.00,A,A*61
$GPRMC,084146.00,A,1907.92202,N,07255.06634,E,0.006,,290512,,,A*72
$GPVTG,,T,,M,0.006,N,0.011,K,A*25
$GPGGA,084146.00,1907.92202,N,07255.06634,E,1,12,0.81,58.1,M,-65.6,M,,*4B
$GPGSA,A,3,23,13,19,07,03,10,20,06,08,16,32,11,1.56,0.81,1.33*0C
$GPGSV,4,1,15,01,03,163,25,03,34,059,44,06,21,052,38,07,37,331,39*70
$GPGSV,4,2,15,08,15,295,41,10,26,289,42,11,14,149,38,13,65,355,37*78
$GPGSV,4,3,15,16,10,037,27,19,45,107,44,20,23,187,32,23,71,107,42*79
$GPGSV,4,4,15,28,17,232,,32,09,167,35,40,60,224,44*4A
$GPGLL,1907.92202,N,07255.06634,E,084146.00,A,A*60
$GPRMC,084147.00,A,1907.92204,N,07255.06635,E,0.008,,290512,,,A*7A
$GPVTG,,T,,M,0.008,N,0.015,K,A*2F
$GPGGA,084147.00,1907.92204,N,07255.06635,E,1,12,0.81,58.1,M,-65.6,M,,*4D
$GPGSA,A,3,23,13,19,07,03,10,20,06,08,16,32,11,1.56,0.81,1.33*0C
$GPGSV,4,1,15,01,03,163,25,03,34,059,44,06,21,052,38,07,37,331,39*70
$GPGSV,4,2,15,08,15,295,40,10,26,289,42,11,14,149,38,13,65,355,38*76
$GPGSV,4,3,15,16,10,037,27,19,45,107,44,20,23,187,32,23,71,107,42*79
$GPGSV,4,4,15,28,17,232,,32,09,167,35,40,60,224,44*4A
$GPGLL,1907.92204,N,07255.06635,E,084147.00,A,A*66
$GPRMC,084148.00,A,1907.92204,N,07255.06637,E,0.007,,290512,,,A*78
$GPVTG,,T,,M,0.007,N,0.012,K,A*27
$GPGGA,084148.00,1907.92204,N,07255.06637,E,1,12,0.81,58.2,M,-65.6,M,,*43
$GPGSA,A,3,23,13,19,07,03,10,20,06,08,16,32,11,1.56,0.81,1.33*0C
$GPGSV,4,1,15,01,03,163,25,03,34,059,44,06,21,052,39,07,37,331,39*71
$GPGSV,4,2,15,08,15,295,40,10,26,289,43,11,14,149,38,13,65,355,38*77
$GPGSV,4,3,15,16,10,037,27,19,45,107,44,20,23,187,33,23,71,107,42*78
$GPGSV,4,4,15,28,17,232,,32,09,167,34,40,60,224,45*4A
$GPGLL,1907.92204,N,07255.06637,E,084148.00,A,A*6B
$GPRMC,084149.00,A,1907.92205,N,07255.06638,E,0.005,,290512,,,A*75
$GPVTG,,T,,M,0.005,N,0.010,K,A*27
$GPGGA,084149.00,1907.92205,N,07255.06638,E,1,12,0.81,58.2,M,-65.6,M,,*4C
$GPGSA,A,3,23,13,19,07,03,10,20,06,08,16,32,11,1.56,0.81,1.33*0C
$GPGSV,4,1,15,01,03,163,26,03,34,059,44,06,21,051,39,07,37,331,39*71
$GPGSV,4,2,15,08,15,295,40,10,26,289,43,11,14,149,38,13,65,355,38*77
$GPGSV,4,3,15,16,10,037,27,19,45,107,44,20,23,187,32,23,71,107,42*79
$GPGSV,4,4,15,28,17,232,,32,09,167,34,40,60,224,45*4A
$GPGLL,1907.92205,N,07255.06638,E,084149.00,A,A*64
$GPRMC,084150.00,A,1907.92204,N,07255.06639,E,0.006,,290512,,,A*7E
$GPVTG,,T,,M,0.006,N,0.011,K,A*25
$GPGGA,084150.00,1907.92204,N,07255.06639,E,1,12,0.81,58.1,M,-65.6,M,,*47
$GPGSA,A,3,23,13,19,07,03,10,20,06,08,16,32,11,1.56,0.81,1.33*0C
$GPGSV,4,1,15,01,03,163,26,03,34,059,44,06,21,051,39,07,37,331,38*70
$GPGSV,4,2,15,08,15,295,40,10,26,289,43,11,14,149,38,13,65,355,38*77
$GPGSV,4,3,15,16,10,037,28,19,45,107,44,20,23,187,33,23,71,107,42*77
$GPGSV,4,4,15,28,17,232,,32,09,167,34,40,60,224,44*4B
$GPGLL,1907.92204,N,07255.06639,E,084150.00,A,A*6C
$GPRMC,084151.00,A,1907.92203,N,07255.06641,E,0.003,,290512,,,A*72
$GPVTG,,T,,M,0.003,N,0.005,K,A*25
$GPGGA,084151.00,1907.92203,N,07255.06641,E,1,12,0.81,58.1,M,-65.6,M,,*4E
$GPGSA,A,3,23,13,19,07,03,10,20,06,08,16,32,11,1.56,0.81,1.33*0C
$GPGSV,4,1,15,01,03,163,25,03,34,059,44,06,21,051,39,07,37,331,39*72
$GPGSV,4,2,15,08,16,296,41,10,26,289,44,11,14,149,37,13,65,355,39*7F
$GPGSV,4,3,15,16,10,037,30,19,45,107,44,20,23,187,33,23,71,107,42*7E
$GPGSV,4,4,15,28,17,232,,32,09,167,34,40,60,224,45*4A
$GPGLL,1907.92203,N,07255.06641,E,084151.00,A,A*65
$GPRMC,084152.00,A,1907.92199,N,07255.06640,E,0.006,,290512,,,A*75
$GPVTG,,T,,M,0.006,N,0.011,K,A*25
$GPGGA,084152.00,1907.92199,N,07255.06640,E,1,12,0.71,58.2,M,-65.6,M,,*40
$GPGSA,A,3,23,13,19,07,03,10,20,06,08,16,32,11,1.34,0.71,1.14*02
$GPGSV,4,1,15,01,03,163,26,03,34,059,44,06,21,051,39,07,37,331,38*70
$GPGSV,4,2,15,08,16,296,41,10,26,289,45,11,14,149,37,13,65,355,39*7E
$GPGSV,4,3,15,16,10,037,31,19,45,107,44,20,23,187,34,23,71,107,42*78
$GPGSV,4,4,15,28,17,232,,32,09,167,34,40,60,224,45*4A
$GPGLL,1907.92199,N,07255.06640,E,084152.00,A,A*67
$GPRMC,084153.00,A,1907.92199,N,07255.06643,E,0.005,,290512,,,A*74
$GPVTG,,T,,M,0.005,N,0.010,K,A*27
$GPGGA,084153.00,1907.92199,N,07255.06643,E,1,12,0.81,58.3,M,-65.6,M,,*4C
$GPGSA,A,3,23,13,19,07,03,10,20,06,08,16,32,11,1.56,0.81,1.33*0C
$GPGSV,4,1,15,01,03,163,26,03,34,059,44,06,21,051,39,07,37,331,38*70
$GPGSV,4,2,15,08,16,296,41,10,26,289,44,11,14,149,37,13,65,355,39*7F
$GPGSV,4,3,15,16,10,037,31,19,45,107,44,20,23,187,37,23,71,107,42*7B
$GPGSV,4,4,15,28,17,232,,32,09,167,34,40,60,224,44*4B
$GPGLL,1907.92199,N,07255.06643,E,084153.00,A,A*65
$GPRMC,084154.00,A,1907.92198,N,07255.06643,E,0.004,,290512,,,A*73
$GPVTG,,T,,M,0.004,N,0.008,K,A*2F
$GPGGA,084154.00,1907.92198,N,07255.06643,E,1,12,0.71,58.2,M,-65.6,M,,*44
$GPGSA,A,3,23,13,19,07,03,10,20,06,08,16,32,11,1.34,0.71,1.14*02
$GPGSV,4,1,15,01,03,163,24,03,34,059,44,06,21,051,39,07,37,331,38*72
$GPGSV,4,2,15,08,16,296,41,10,26,289,44,11,14,148,37,13,65,355,38*7F
$GPGSV,4,3,15,16,10,037,32,19,45,107,44,20,23,187,37,23,71,107,42*78
$GPGSV,4,4,15,28,17,232,,32,09,167,34,40,60,224,44*4B
$GPGLL,1907.92198,N,07255.06643,E,084154.00,A,A*63
$GPRMC,084155.00,A,1907.92196,N,07255.06642,E,0.005,,290512,,,A*7C
$GPVTG,,T,,M,0.005,N,0.008,K,A*2E
$GPGGA,084155.00,1907.92196,N,07255.06642,E,1,12,0.71,58.3,M,-65.6,M,,*4B
$GPGSA,A,3,23,13,19,07,03,10,20,06,08,16,32,11,1.34,0.71,1.14*02
$GPGSV,4,1,15,01,03,163,25,03,34,059,44,06,21,051,40,07,37,331,38*7D
$GPGSV,4,2,15,08,16,296,40,10,26,289,44,11,14,148,36,13,65,355,38*7F
$GPGSV,4,3,15,16,10,037,32,19,45,107,44,20,23,187,36,23,71,107,42*79
$GPGSV,4,4,15,28,17,232,,32,09,167,33,40,60,224,45*4D
$GPGLL,1907.92196,N,07255.06642,E,084155.00,A,A*6D
$GPRMC,084156.00,A,1907.92193,N,07255.06640,E,0.008,,290512,,,A*75
$GPVTG,,T,,M,0.008,N,0.015,K,A*2F
$GPGGA,084156.00,1907.92193,N,07255.06640,E,1,12,0.71,58.4,M,-65.6,M,,*48
$GPGSA,A,3,23,13,19,07,03,10,20,06,08,16,32,11,1.34,0.71,1.14*02
$GPGSV,4,1,15,01,03,163,26,03,34,059,44,06,21,051,40,07,37,331,38*7E
$GPGSV,4,2,15,08,16,296,40,10,26,289,43,11,14,148,35,13,66,355,38*78
$GPGSV,4,3,15,16,10,037,32,19,45,107,44,20,23,187,37,23,71,107,42*78
$GPGSV,4,4,15,28,17,232,,32,09,167,33,40,60,224,45*4D
$GPGLL,1907.92193,N,07255.06640,E,084156.00,A,A*69
$GPRMC,084157.00,A,1907.92188,N,07255.06637,E,0.013,,290512,,,A*74
$GPVTG,,T,,M,0.013,N,0.025,K,A*26
$GPGGA,084157.00,1907.92188,N,07255.06637,E,1,12,0.71,58.5,M,-65.6,M,,*42
$GPGSA,A,3,23,13,19,07,03,10,20,06,08,16,32,11,1.34,0.71,1.14*02
$GPGSV,4,1,15,01,03,163,26,03,34,059,44,06,21,051,40,07,37,331,37*71
$GPGSV,4,2,15,08,16,296,40,10,26,289,44,11,14,148,35,13,66,355,38*7F
$GPGSV,4,3,15,16,10,037,31,19,45,107,43,20,23,187,37,23,71,107,42*7C
$GPGSV,4,4,15,28,17,232,,32,09,167,34,40,60,224,45*4A
$GPGLL,1907.92188,N,07255.06637,E,084157.00,A,A*62
$GPRMC,084158.00,A,1907.92188,N,07255.06638,E,0.043,,290512,,,A*71
$GPVTG,,T,,M,0.043,N,0.080,K,A*2C
$GPGGA,084158.00,1907.92188,N,07255.06638,E,1,12,0.81,58.5,M,-65.6,M,,*4D
$GPGSA,A,3,23,13,19,07,03,10,20,06,08,16,32,11,1.56,0.81,1.33*0C
$GPGSV,4,1,15,01,03,163,26,03,34,059,44,06,21,051,40,07,37,331,37*71
$GPGSV,4,2,15,08,16,296,39,10,26,289,44,11,14,148,34,13,66,355,39*71
$GPGSV,4,3,15,16,10,037,32,19,45,107,43,20,23,187,37,23,71,107,42*7F
$GPGSV,4,4,15,28,17,232,,32,09,167,33,40,60,224,43*4B
$GPGLL,1907.92188,N,07255.06638,E,084158.00,A,A*62
$GPRMC,084159.00,A,1907.92185,N,07255.06637,E,0.003,,290512,,,A*76
$GPVTG,,T,,M,0.003,N,0.005,K,A*25
$GPGGA,084159.00,1907.92185,N,07255.06637,E,1,12,0.71,58.6,M,-65.6,M,,*42
$GPGSA,A,3,23,13,19,07,03,10,20,06,08,16,32,11,1.34,0.71,1.14*02
$GPGSV,4,1,15,01,03,163,27,03,34,059,44,06,21,051,40,07,37,331,38*7F
$GPGSV,4,2,15,08,16,296,38,10,26,289,43,11,14,148,34,13,66,355,38*76
$GPGSV,4,3,15,16,10,037,33,19,45,107,43,20,23,187,37,23,71,107,41*7D
$GPGSV,4,4,15,28,17,232,,32,09,167,34,40,60,224,44*4B
$GPGLL,1907.92185,N,07255.06637,E,084159.00,A,A*61
$GPRMC,084200.00,A,1907.92184,N,07255.06636,E,0.003,,290512,,,A*79
$GPVTG,,T,,M,0.003,N,0.006,K,A*26
$GPGGA,084200.00,1907.92184,N,07255.06636,E,1,12,0.71,58.7,M,-65.6,M,,*4C
$GPGSA,A,3,23,13,19,07,03,10,20,06,08,16,32,11,1.34,0.71,1.14*02
$GPGSV,4,1,15,01,03,163,26,03,34,059,44,06,21,051,40,07,37,331,38*7E
$GPGSV,4,2,15,08,16,296,39,10,26,289,42,11,14,148,33,13,66,355,39*70
$GPGSV,4,3,15,16,10,037,33,19,45,107,44,20,23,187,38,23,71,107,41*75
$GPGSV,4,4,15,28,17,232,,32,09,167,34,40,60,224,44*4B
$GPGLL,1907.92184,N,07255.06636,E,084200.00,A,A*6E
$GPRMC,084201.00,A,1907.92183,N,07255.06634,E,0.012,,290512,,,A*7D
$GPVTG,,T,,M,0.012,N,0.022,K,A*20
$GPGGA,084201.00,1907.92183,N,07255.06634,E,1,12,0.71,58.9,M,-65.6,M,,*46
$GPGSA,A,3,23,13,19,07,03,10,20,06,08,16,32,11,1.34,0.71,1.14*02
$GPGSV,4,1,15,01,03,163,27,03,34,059,44,06,21,051,40,07,37,331,38*7F
$GPGSV,4,2,15,08,16,296,38,10,26,289,43,11,14,148,33,13,66,355,39*70
$GPGSV,4,3,15,16,10,037,33,19,45,107,44,20,23,187,38,23,71,107,40*74
$GPGSV,4,4,15,28,17,232,,32,09,167,34,40,60,224,43*4C
$GPGLL,1907.92183,N,07255.06634,E,084201.00,A,A*6A
$GPRMC,084202.00,A,1907.92180,N,07255.06632,E,0.004,,290512,,,A*7C
$GPVTG,,T,,M,0.004,N,0.007,K,A*20
$GPGGA,084202.00,1907.92180,N,07255.06632,E,1,12,0.71,59.1,M,-65.6,M,,*49
$GPGSA,A,3,23,13,19,07,03,10,20,06,08,16,32,11,1.34,0.71,1.14*02
$GPGSV,4,1,15,01,03,163,27,03,34,059,44,06,21,051,40,07,37,331,37*70
$GPGSV,4,2,15,08,16,296,38,10,26,289,44,11,14,148,31,13,66,355,39*75
$GPGSV,4,3,15,16,10,037,34,19,45,106,43,20,23,187,38,23,71,107,40*75
$GPGSV,4,4,15,28,17,232,,32,09,167,34,40,60,224,43*4C
$GPGLL,1907.92180,N,07255.06632,E,084202.00,A,A*6C
$GPRMC,084203.00,A,1907.92181,N,07255.06634,E,0.003,,290512,,,A*7D
$GPVTG,,T,,M,0.003,N,0.005,K,A*25
$GPGGA,084203.00,1907.92181,N,07255.06634,E,1,12,0.81,59.2,M,-65.6,M,,*43
$GPGSA,A,3,23,13,19,07,03,10,20,06,08,16,32,11,1.56,0.81,1.33*0C
$GPGSV,4,1,15,01,03,163,27,03,34,059,44,06,21,051,40,07,37,331,37*70
$GPGSV,4,2,15,08,16,296,37,10,26,289,44,11,14,148,33,13,66,355,38*79
$GPGSV,4,3,15,16,10,037,35,19,45,106,44,20,22,187,38,23,71,107,41*73
$GPGSV,4,4,15,28,17,232,,32,09,167,36,40,60,224,44*49
$GPGLL,1907.92181,N,07255.06634,E,084203.00,A,A*6A
$GPRMC,084204.00,A,1907.92182,N,07255.06635,E,0.003,,290512,,,A*78
$GPVTG,,T,,M,0.003,N,0.006,K,A*26
$GPGGA,084204.00,1907.92182,N,07255.06635,E,1,12,0.71,59.4,M,-65.6,M,,*4F
$GPGSA,A,3,23,13,19,07,03,10,20,06,08,16,32,11,1.34,0.71,1.14*02
$GPGSV,4,1,15,01,03,163,26,03,34,059,43,06,21,051,40,07,37,331,37*76
$GPGSV,4,2,15,08,16,296,37,10,26,289,44,11,14,148,34,13,66,355,38*7E
$GPGSV,4,3,15,16,10,037,34,19,45,106,43,20,22,187,38,23,71,107,40*74
$GPGSV,4,4,15,28,17,232,,32,09,167,34,40,60,224,43*4C
$GPGLL,1907.92182,N,07255.06635,E,084204.00,A,A*6F
$GPRMC,084205.00,A,1907.92184,N,07255.06636,E,0.008,,290512,,,A*77
$GPVTG,,T,,M,0.008,N,0.014,K,A*2E
$GPGGA,084205.00,1907.92184,N,07255.06636,E,1,12,0.71,59.6,M,-65.6,M,,*49
$GPGSA,A,3,23,13,19,07,03,10,20,06,08,16,32,11,1.34,0.71,1.14*02
$GPGSV,4,1,15,01,03,163,24,03,34,059,43,06,21,051,40,07,37,331,37*74
$GPGSV,4,2,15,08,16,296,36,10,26,289,43,11,14,148,33,13,66,355,38*7F
$GPGSV,4,3,15,16,10,037,34,19,45,106,44,20,22,187,39,23,71,107,40*72
$GPGSV,4,4,15,28,17,232,27,32,09,167,35,40,60,224,43*48
$GPGLL,1907.92184,N,07255.06636,E,084205.00,A,A*6B
$GPRMC,084206.00,A,1907.92185,N,07255.06638,E,0.003,,290512,,,A*70
$GPVTG,,T,,M,0.003,N,0.006,K,A*26
$GPGGA,084206.00,1907.92185,N,07255.06638,E,1,12,0.71,59.8,M,-65.6,M,,*4B
$GPGSA,A,3,23,13,19,07,03,10,20,06,08,16,32,11,1.34,0.71,1.14*02
$GPGSV,4,1,15,01,03,163,23,03,34,059,43,06,21,051,40,07,37,331,37*73
$GPGSV,4,2,15,08,16,296,38,10,26,289,43,11,14,148,33,13,66,355,39*70
$GPGSV,4,3,15,16,10,037,34,19,45,106,43,20,22,187,39,23,70,108,40*7B
$GPGSV,4,4,15,28,17,232,26,32,09,167,35,40,60,224,44*4E
$GPGLL,1907.92185,N,07255.06638,E,084206.00,A,A*67
$GPRMC,084207.00,A,1907.92185,N,07255.06638,E,0.003,,290512,,,A*71
$GPVTG,,T,,M,0.003,N,0.005,K,A*25
$GPGGA,084207.00,1907.92185,N,07255.06638,E,1,12,0.71,60.0,M,-65.6,M,,*48
$GPGSA,A,3,23,13,19,07,03,10,20,06,08,16,32,11,1.34,0.71,1.14*02
$GPGSV,4,1,15,01,03,163,23,03,34,059,43,06,21,051,40,07,37,331,37*73
$GPGSV,4,2,15,08,16,296,37,10,26,289,43,11,14,148,34,13,66,355,38*79
$GPGSV,4,3,15,16,10,037,34,19,45,106,43,20,22,187,40,23,70,108,40*75
$GPGSV,4,4,15,28,17,232,25,32,09,167,35,40,60,224,43*4A
$GPGLL,1907.92185,N,07255.06638,E,084207.00,A,A*66
$GPRMC,084208.00,A,1907.92192,N,07255.06640,E,0.009,,290512,,,A*7D
$GPVTG,,T,,M,0.009,N,0.017,K,A*2C
$GPGGA,084208.00,1907.92192,N,07255.06640,E,1,12,0.81,60.1,M,-65.6,M,,*40
$GPGSA,A,3,23,13,19,07,03,10,20,06,08,16,32,11,1.56,0.81,1.33*0C
$GPGSV,4,1,15,01,03,163,25,03,34,059,43,06,21,051,40,07,37,331,39*7B
$GPGSV,4,2,15,08,16,296,36,10,26,289,44,11,14,148,33,13,66,355,39*79
$GPGSV,4,3,15,16,10,037,35,19,45,106,43,20,22,187,39,23,70,108,41*7B
$GPGSV,4,4,15,28,17,232,25,32,09,167,35,40,60,224,43*4A
$GPGLL,1907.92192,N,07255.06640,E,084208.00,A,A*60
$GPRMC,084209.00,A,1907.92196,N,07255.06641,E,0.006,,290512,,,A*76
$GPVTG,,T,,M,0.006,N,0.011,K,A*25
$GPGGA,084209.00,1907.92196,N,07255.06641,E,1,12,0.71,60.2,M,-65.6,M,,*48
$GPGSA,A,3,23,13,19,07,03,10,20,06,08,16,32,11,1.34,0.71,1.14*02
$GPGSV,4,1,15,01,03,163,26,03,34,059,43,06,21,051,40,07,37,331,37*76
$GPGSV,4,2,15,08,16,296,31,10,26,289,44,11,14,148,33,13,66,355,38*7F
$GPGSV,4,3,15,16,10,037,35,19,45,106,44,20,22,187,39,23,70,108,41*7C
$GPGSV,4,4,15,28,17,232,26,32,09,167,34,40,60,224,44*4F
$GPGLL,1907.92196,N,07255.06641,E,084209.00,A,A*64
$GPRMC,084210.00,A,1907.92199,N,07255.06641,E,0.012,,290512,,,A*74
$GPVTG,,T,,M,0.012,N,0.022,K,A*20
$GPGGA,084210.00,1907.92199,N,07255.06641,E,1,12,0.71,60.3,M,-65.6,M,,*4E
$GPGSA,A,3,23,13,19,07,03,10,20,06,08,16,32,11,1.34,0.71,1.14*02
$GPGSV,4,1,15,01,03,163,28,03,34,059,43,06,21,051,40,07,37,331,35*7A
$GPGSV,4,2,15,08,16,296,32,10,26,289,44,11,14,148,33,13,66,355,38*7C
$GPGSV,4,3,15,16,10,037,35,19,45,106,44,20,22,187,39,23,70,108,41*7C
$GPGSV,4,4,15,28,17,232,26,32,09,167,34,40,60,224,44*4F
$GPGLL,1907.92199,N,07255.06641,E,084210.00,A,A*63
$GPRMC,084211.00,A,1907.92203,N,07255.06641,E,0.016,,290512,,,A*71
$GPVTG,,T,,M,0.016,N,0.030,K,A*27
$GPGGA,084211.00,1907.92203,N,07255.06641,E,1,12,0.71,60.4,M,-65.6,M,,*48
$GPGSA,A,3,23,13,19,07,03,10,20,06,08,16,32,11,1.34,0.71,1.14*02
$GPGSV,4,1,15,01,03,163,27,03,34,059,44,06,21,051,40,07,37,331,37*70
$GPGSV,4,2,15,08,16,296,34,10,26,289,44,11,14,148,33,13,66,355,38*7A
$GPGSV,4,3,15,16,10,037,35,19,45,106,44,20,22,187,40,23,70,108,42*71
$GPGSV,4,4,15,28,18,233,28,32,09,167,33,40,60,224,44*48
$GPGLL,1907.92203,N,07255.06641,E,084211.00,A,A*62
$GPRMC,084212.00,A,1907.92206,N,07255.06637,E,0.002,,290512,,,A*73
$GPVTG,,T,,M,0.002,N,0.005,K,A*24
$GPGGA,084212.00,1907.92206,N,07255.06637,E,1,12,0.71,60.5,M,-65.6,M,,*4E
$GPGSA,A,3,23,13,19,07,03,10,20,06,08,16,32,11,1.34,0.71,1.14*02
$GPGSV,4,1,15,01,03,163,26,03,34,059,43,06,21,051,40,07,37,331,38*79
$GPGSV,4,2,15,08,16,296,32,10,26,289,44,11,14,148,32,13,66,355,38*7D
$GPGSV,4,3,15,16,10,037,35,19,45,106,44,20,22,187,40,23,70,108,42*71
$GPGSV,4,4,15,28,18,233,29,32,09,167,33,40,60,224,44*49
$GPGLL,1907.92206,N,07255.06637,E,084212.00,A,A*65
$GPRMC,084213.00,A,1907.92214,N,07255.06639,E,0.009,,290512,,,A*74
$GPVTG,,T,,M,0.009,N,0.017,K,A*2C
$GPGGA,084213.00,1907.92214,N,07255.06639,E,1,12,0.81,60.6,M,-65.6,M,,*4E
$GPGSA,A,3,23,13,19,07,03,10,20,06,08,16,32,11,1.56,0.81,1.33*0C
$GPGSV,4,1,15,01,03,163,26,03,34,059,43,06,21,051,38,07,37,331,37*79
$GPGSV,4,2,15,08,16,296,32,10,26,289,44,11,14,148,32,13,66,355,39*7C
$GPGSV,4,3,15,16,10,037,35,19,45,106,44,20,22,187,40,23,70,108,42*71
$GPGSV,4,4,15,28,18,233,29,32,09,167,34,40,60,224,44*4E
$GPGLL,1907.92214,N,07255.06639,E,084213.00,A,A*69
$GPRMC,084214.00,A,1907.92221,N,07255.06638,E,0.013,,290512,,,A*7F
$GPVTG,,T,,M,0.013,N,0.025,K,A*26
$GPGGA,084214.00,1907.92221,N,07255.06638,E,1,12,0.71,60.6,M,-65.6,M,,*41
$GPGSA,A,3,23,13,19,07,03,10,20,06,08,16,32,11,1.34,0.71,1.14*02
$GPGSV,4,1,15,01,03,163,27,03,34,059,43,06,21,051,39,07,37,331,39*77
$GPGSV,4,2,15,08,16,296,32,10,26,289,43,11,14,148,31,13,66,355,39*78
$GPGSV,4,3,15,16,10,037,35,19,45,106,45,20,22,187,38,23,70,108,42*7F
$GPGSV,4,4,15,28,18,233,30,32,09,167,34,40,60,224,44*46
$GPGLL,1907.92221,N,07255.06638,E,084214.00,A,A*69
$GPRMC,084215.00,A,1907.92225,N,07255.06637,E,0.007,,290512,,,A*70
$GPVTG,,T,,M,0.007,N,0.013,K,A*26
$GPGGA,084215.00,1907.92225,N,07255.06637,E,1,11,0.76,60.6,M,-65.6,M,,*4F
$GPGSA,A,3,23,13,19,07,03,10,20,06,08,16,11,,1.42,0.76,1.20*02
$GPGSV,4,1,15,01,03,163,27,03,34,059,42,06,21,051,40,07,37,331,36*77
$GPGSV,4,2,15,08,16,296,33,10,26,289,43,11,14,148,31,13,66,355,38*78
$GPGSV,4,3,15,16,10,037,34,19,45,106,44,20,22,187,39,23,70,108,43*7F
$GPGSV,4,4,15,28,18,233,30,32,08,166,35,40,60,224,44*47
$GPGLL,1907.92225,N,07255.06637,E,084215.00,A,A*63
$GPRMC,084216.00,A,1907.92233,N,07255.06635,E,0.011,,290512,,,A*71
$GPVTG,,T,,M,0.011,N,0.021,K,A*20
$GPGGA,084216.00,1907.92233,N,07255.06635,E,1,12,0.71,60.6,M,-65.6,M,,*4D
$GPGSA,A,3,23,13,19,07,03,10,20,06,08,16,32,11,1.34,0.71,1.14*02
$GPGSV,4,1,15,01,03,163,26,03,34,059,43,06,21,051,38,07,37,331,38*76
$GPGSV,4,2,15,08,16,296,28,10,26,289,43,11,14,148,31,13,66,355,39*73
$GPGSV,4,3,15,16,10,037,34,19,45,106,45,20,22,187,39,23,70,108,43*7E
$GPGSV,4,4,15,28,18,233,30,32,08,166,35,40,60,224,44*47
$GPGLL,1907.92233,N,07255.06635,E,084216.00,A,A*65
$GPRMC,084217.00,A,1907.92238,N,07255.06634,E,0.004,,290512,,,A*7E
$GPVTG,,T,,M,0.004,N,0.008,K,A*2F
$GPGGA,084217.00,1907.92238,N,07255.06634,E,1,12,0.71,60.6,M,-65.6,M,,*46
$GPGSA,A,3,23,13,19,07,03,10,20,06,08,16,32,11,1.34,0.71,1.14*02
$GPGSV,4,1,15,01,03,163,26,03,34,059,43,06,21,051,38,07,37,331,36*78
$GPGSV,4,2,15,08,16,296,26,10,26,289,44,11,14,148,30,13,66,355,39*7B
$GPGSV,4,3,15,16,10,037,34,19,45,106,44,20,22,187,39,23,70,108,43*7F
$GPGSV,4,4,15,28,18,233,30,32,08,166,35,40,60,224,44*47
$GPGLL,1907.92238,N,07255.06634,E,084217.00,A,A*6E
$GPRMC,084218.00,A,1907.92246,N,07255.06637,E,0.004,,290512,,,A*7B
$GPVTG,,T,,M,0.004,N,0.007,K,A*20
$GPGGA,084218.00,1907.92246,N,07255.06637,E,1,12,0.81,60.6,M,-65.6,M,,*4C
$GPGSA,A,3,23,13,19,07,03,10,20,06,08,16,32,11,1.56,0.81,1.33*0C
$GPGSV,4,1,15,01,03,163,25,03,34,059,43,06,21,051,38,07,37,331,36*7B
$GPGSV,4,2,15,08,16,296,27,10,26,289,43,11,14,148,31,13,66,355,38*7D
$GPGSV,4,3,15,16,10,037,34,19,45,106,44,20,22,187,39,23,70,108,43*7F
$GPGSV,4,4,15,28,18,233,30,32,08,166,35,40,60,224,44*47
$GPGLL,1907.92246,N,07255.06637,E,084218.00,A,A*6B
$GPRMC,084219.00,A,1907.92254,N,07255.06638,E,0.009,,290512,,,A*7B
$GPVTG,,T,,M,0.009,N,0.017,K,A*2C
$GPGGA,084219.00,1907.92254,N,07255.06638,E,1,12,0.71,60.6,M,-65.6,M,,*4E
$GPGSA,A,3,23,13,19,07,03,10,20,06,08,16,32,11,1.34,0.71,1.14*02
$GPGSV,4,1,15,01,03,163,25,03,34,059,43,06,21,051,38,07,37,331,37*7A
$GPGSV,4,2,15,08,16,296,29,10,26,289,43,11,14,148,31,13,66,355,38*73
$GPGSV,4,3,15,16,10,037,34,19,45,106,44,20,22,187,39,23,70,108,42*7E
$GPGSV,4,4,15,28,18,233,29,32,08,166,36,40,60,224,44*4C
$GPGLL,1907.92254,N,07255.06638,E,084219.00,A,A*66
$GPRMC,084220.00,A,1907.92260,N,07255.06639,E,0.004,,290512,,,A*7A
$GPVTG,,T,,M,0.004,N,0.007,K,A*20
$GPGGA,084220.00,1907.92260,N,07255.06639,E,1,12,0.71,60.5,M,-65.6,M,,*41
$GPGSA,A,3,23,13,19,07,03,10,20,06,08,16,32,11,1.34,0.71,1.14*02
$GPGSV,4,1,15,01,03,163,24,03,34,059,43,06,21,051,38,07,37,331,37*7B
$GPGSV,4,2,15,08,16,296,30,10,26,289,43,11,14,148,31,13,66,355,38*7B
$GPGSV,4,3,15,16,10,037,34,19,45,106,44,20,22,187,39,23,70,108,42*7E
$GPGSV,4,4,15,28,18,233,28,32,08,166,35,40,60,224,44*4E
$GPGLL,1907.92260,N,07255.06639,E,084220.00,A,A*6A
$GPRMC,084221.00,A,1907.92264,N,07255.06639,E,0.017,,290512,,,A*7D
$GPVTG,,T,,M,0.017,N,0.031,K,A*27
$GPGGA,084221.00,1907.92264,N,07255.06639,E,1,12,0.71,60.5,M,-65.6,M,,*44
$GPGSA,A,3,23,13,19,07,03,10,20,06,08,16,32,11,1.34,0.71,1.14*02
$GPGSV,4,1,15,01,03,163,23,03,34,059,43,06,21,051,38,07,37,331,36*7D
$GPGSV,4,2,15,08,16,296,30,10,26,289,43,11,14,148,31,13,66,355,38*7B
$GPGSV,4,3,15,16,10,037,34,19,45,106,44,20,22,187,39,23,70,108,42*7E
$GPGSV,4,4,15,28,18,233,28,32,08,166,35,40,60,224,44*4E
$GPGLL,1907.92264,N,07255.06639,E,084221.00,A,A*6F
$GPRMC,084222.00,A,1907.92266,N,07255.06639,E,0.002,,290512,,,A*78
$GPVTG,,T,,M,0.002,N,0.004,K,A*25
$GPGGA,084222.00,1907.92266,N,07255.06639,E,1,12,0.71,60.6,M,-65.6,M,,*46
$GPGSA,A,3,23,13,19,07,03,10,20,06,08,16,32,11,1.34,0.71,1.13*05
$GPGSV,4,1,15,01,03,163,22,03,34,059,43,06,21,051,38,07,37,331,37*7D
$GPGSV,4,2,15,08,16,296,30,10,26,289,43,11,14,148,33,13,66,355,37*76
$GPGSV,4,3,15,16,10,037,34,19,45,106,43,20,22,187,39,23,70,108,42*79
$GPGSV,4,4,15,28,18,233,28,32,08,166,35,40,60,224,43*49
$GPGLL,1907.92266,N,07255.06639,E,084222.00,A,A*6E
$GPRMC,084223.00,A,1907.92273,N,07255.06642,E,0.012,,290512,,,A*70
$GPVTG,,T,,M,0.012,N,0.023,K,A*21
$GPGGA,084223.00,1907.92273,N,07255.06642,E,1,12,0.81,60.6,M,-65.6,M,,*40
$GPGSA,A,3,23,13,19,07,03,10,20,06,08,16,32,11,1.55,0.81,1.33*0F
$GPGSV,4,1,15,01,03,163,21,03,34,059,43,06,21,051,38,07,37,331,38*71
$GPGSV,4,2,15,08,16,296,32,10,26,289,43,11,14,148,33,13,66,355,37*74
$GPGSV,4,3,15,16,10,037,33,19,45,106,43,20,22,187,39,23,70,108,42*7E
$GPGSV,4,4,15,28,18,233,29,32,08,166,36,40,60,224,43*4B
$GPGLL,1907.92273,N,07255.06642,E,084223.00,A,A*67
$GPRMC,084224.00,A,1907.92279,N,07255.06646,E,0.002,,290512,,,A*78
$GPVTG,,T,,M,0.002,N,0.003,K,A*22
$GPGGA,084224.00,1907.92279,N,07255.06646,E,1,12,0.71,60.6,M,-65.6,M,,*46
$GPGSA,A,3,23,13,19,07,03,10,20,06,08,16,32,11,1.34,0.71,1.13*05
$GPGSV,4,1,15,01,03,163,21,03,34,059,43,06,21,051,39,07,37,331,39*71
$GPGSV,4,2,15,08,16,296,33,10,26,289,43,11,14,148,33,13,66,355,38*7A
$GPGSV,4,3,15,16,10,037,33,19,45,106,43,20,22,187,40,23,70,108,42*70
$GPGSV,4,4,15,28,18,233,29,32,08,166,36,40,60,224,43*4B
$GPGLL,1907.92279,N,07255.06646,E,084224.00,A,A*6E
$GPRMC,084225.00,A,1907.92283,N,07255.06648,E,0.005,,290512,,,A*75
$GPVTG,,T,,M,0.005,N,0.010,K,A*27
$GPGGA,084225.00,1907.92283,N,07255.06648,E,1,12,0.71,60.6,M,-65.6,M,,*4C
$GPGSA,A,3,23,13,19,07,03,10,20,06,08,16,32,11,1.34,0.71,1.13*05
$GPGSV,4,1,15,01,03,163,21,03,34,059,43,06,21,051,39,07,37,331,40*7F
$GPGSV,4,2,15,08,16,296,34,10,26,289,42,11,14,148,33,13,66,355,38*7C
$GPGSV,4,3,15,16,10,037,33,19,45,106,43,20,22,187,39,23,70,108,42*7E
$GPGSV,4,4,15,28,18,233,28,32,08,166,36,40,60,224,43*4A
$GPGLL,1907.92283,N,07255.06648,E,084225.00,A,A*64
$GPRMC,084226.00,A,1907.92285,N,07255.06651,E,0.011,,290512,,,A*7D
$GPVTG,,T,,M,0.011,N,0.020,K,A*21
$GPGGA,084226.00,1907.92285,N,07255.06651,E,1,12,0.71,60.7,M,-65.6,M,,*40
$GPGSA,A,3,23,13,19,07,03,10,20,06,08,16,32,11,1.34,0.71,1.13*05
$GPGSV,4,1,15,01,03,163,21,03,34,059,43,06,21,051,40,07,37,331,39*7F
$GPGSV,4,2,15,08,16,296,34,10,26,289,42,11,14,148,33,13,66,355,38*7C
$GPGSV,4,3,15,16,10,037,33,19,45,106,43,20,22,187,40,23,70,108,42*70
$GPGSV,4,4,15,28,18,233,28,32,08,166,35,40,60,224,43*49
$GPGLL,1907.92285,N,07255.06651,E,084226.00,A,A*69
$GPRMC,084227.00,A,1907.92284,N,07255.06653,E,0.003,,290512,,,A*7C
$GPVTG,,T,,M,0.003,N,0.006,K,A*26
$GPGGA,084227.00,1907.92284,N,07255.06653,E,1,12,0.71,60.8,M,-65.6,M,,*4D
$GPGSA,A,3,23,13,19,07,03,10,20,06,08,16,32,11,1.34,0.71,1.13*05
$GPGSV,4,1,15,01,03,163,20,03,34,059,43,06,21,051,39,07,37,331,39*70
$GPGSV,4,2,15,08,16,296,34,10,26,289,41,11,14,148,34,13,66,355,39*79
$GPGSV,4,3,15,16,10,037,33,19,45,106,43,20,22,187,40,23,70,108,42*70
$GPGSV,4,4,15,28,18,233,28,32,08,166,35,40,60,224,43*49
$GPGLL,1907.92284,N,07255.06653,E,084227.00,A,A*6B
$GPRMC,084228.00,A,1907.92288,N,07255.06656,E,0.007,,290512,,,A*7E
$GPVTG,,T,,M,0.007,N,0.013,K,A*26
$GPGGA,084228.00,1907.92288,N,07255.06656,E,1,12,0.81,60.8,M,-65.6,M,,*44
$GPGSA,A,3,23,13,19,07,03,10,20,06,08,16,32,11,1.55,0.81,1.33*0F
$GPGSV,4,1,15,01,03,163,20,03,34,059,43,06,21,051,40,07,37,331,39*7E
$GPGSV,4,2,15,08,16,296,35,10,26,289,41,11,14,148,34,13,66,355,39*78
$GPGSV,4,3,15,16,10,037,32,19,45,106,43,20,22,187,40,23,70,108,42*71
$GPGSV,4,4,15,28,18,233,28,32,08,166,35,40,60,224,44*4E
$GPGLL,1907.92288,N,07255.06656,E,084228.00,A,A*6D
$GPRMC,084229.00,A,1907.92290,N,07255.06658,E,0.009,,290512,,,A*76
$GPVTG,,T,,M,0.009,N,0.016,K,A*2D
$GPGGA,084229.00,1907.92290,N,07255.06658,E,1,12,0.71,60.8,M,-65.6,M,,*4D
$GPGSA,A,3,23,13,19,07,03,10,20,06,08,16,32,11,1.34,0.71,1.13*05
$GPGSV,4,1,15,01,03,163,19,03,34,059,43,06,21,051,39,07,37,331,39*7A
$GPGSV,4,2,15,08,16,296,36,10,26,289,41,11,14,148,35,13,66,355,39*7A
$GPGSV,4,3,15,16,10,037,32,19,45,106,43,20,22,187,40,23,70,108,42*71
$GPGSV,4,4,15,28,18,233,27,32,08,166,35,40,60,224,44*41
$GPGLL,1907.92290,N,07255.06658,E,084229.00,A,A*6B
$GPRMC,084230.00,A,1907.92289,N,07255.06661,E,0.042,,290512,,,D*76
$GPVTG,,T,,M,0.042,N,0.079,K,D*2E
$GPGGA,084230.00,1907.92289,N,07255.06661,E,2,12,0.71,60.9,M,-65.6,M,,0000*45
$GPGSA,A,3,23,13,19,07,03,10,20,06,08,16,32,11,1.34,0.71,1.13*05
$GPGSV,4,1,15,01,03,163,19,03,34,059,43,06,21,051,40,07,37,331,39*74
$GPGSV,4,2,15,08,16,296,36,10,26,289,40,11,14,148,36,13,66,355,39*78
$GPGSV,4,3,15,16,10,037,32,19,45,106,43,20,22,187,40,23,70,108,42*71
$GPGSV,4,4,15,28,18,233,25,32,08,166,35,40,60,224,44*43
$GPGLL,1907.92289,N,07255.06661,E,084230.00,A,D*64
$GPRMC,084231.00,A,1907.92288,N,07255.06663,E,0.003,,290512,,,D*71
$GPVTG,,T,,M,0.003,N,0.006,K,D*23
$GPGGA,084231.00,1907.92288,N,07255.06663,E,2,12,0.71,61.0,M,-65.6,M,,0000*4F
$GPGSA,A,3,23,13,19,07,03,10,20,06,08,16,32,11,1.34,0.71,1.13*05
$GPGSV,4,1,15,01,03,163,,03,34,059,43,06,21,051,40,07,37,331,39*7C
$GPGSV,4,2,15,08,16,296,36,10,26,289,40,11,14,148,36,13,66,355,39*78
$GPGSV,4,3,15,16,10,037,30,19,45,106,43,20,22,187,40,23,70,108,43*72
$GPGSV,4,4,15,28,18,233,25,32,08,166,35,40,60,224,44*43
$GPGLL,1907.92288,N,07255.06663,E,084231.00,A,D*66
$GPRMC,084232.00,A,1907.92287,N,07255.06665,E,0.010,,290512,,,D*79
$GPVTG,,T,,M,0.010,N,0.018,K,D*2E
$GPGGA,084232.00,1907.92287,N,07255.06665,E,2,12,0.71,61.1,M,-65.6,M,,0000*44
$GPGSA,A,3,23,13,19,07,03,10,20,06,08,16,32,11,1.34,0.71,1.13*05
$GPGSV,4,1,15,01,03,163,20,03,34,059,43,06,21,051,40,07,37,331,39*7E
$GPGSV,4,2,15,08,16,296,37,10,26,289,40,11,14,148,36,13,66,355,39*79
$GPGSV,4,3,15,16,10,037,29,19,45,106,43,20,22,187,40,23,70,108,43*7A
$GPGSV,4,4,15,28,18,233,25,32,08,166,35,40,60,224,44*43
$GPGLL,1907.92287,N,07255.06665,E,084232.00,A,D*6C
$GPRMC,084233.00,A,1907.92288,N,07255.06667,E,0.016,,290512,,,D*73
$GPVTG,,T,,M,0.016,N,0.029,K,D*2A
$GPGGA,084233.00,1907.92288,N,07255.06667,E,2,12,0.81,61.2,M,-65.6,M,,0000*44
$GPGSA,A,3,23,13,19,07,03,10,20,06,08,16,32,11,1.55,0.81,1.33*0F
$GPGSV,4,1,15,01,03,163,20,03,34,059,43,06,21,051,40,07,37,331,39*7E
$GPGSV,4,2,15,08,16,296,37,10,26,289,39,11,14,148,36,13,66,355,39*77
$GPGSV,4,3,15,16,10,037,29,19,45,106,43,20,22,187,40,23,70,108,43*7A
$GPGSV,4,4,15,28,18,233,26,32,08,166,35,40,60,224,44*40
$GPGLL,1907.92288,N,07255.06667,E,084233.00,A,D*60
$GPRMC,084234.00,A,1907.92286,N,07255.06667,E,0.005,,290512,,,D*78
$GPVTG,,T,,M,0.005,N,0.010,K,D*22
$GPGGA,084234.00,1907.92286,N,07255.06667,E,2,12,0.71,61.3,M,-65.6,M,,0000*43
$GPGSA,A,3,23,13,19,07,03,10,20,06,08,16,32,11,1.34,0.71,1.13*05
$GPGSV,4,1,15,01,03,163,20,03,34,059,43,06,21,051,40,07,37,331,39*7E
$GPGSV,4,2,15,08,16,296,38,10,26,289,39,11,14,148,37,13,66,355,39*79
$GPGSV,4,3,15,16,10,037,29,19,45,106,43,20,22,187,40,23,70,108,43*7A
$GPGSV,4,4,15,28,18,233,25,32,08,166,35,40,60,224,44*43
$GPGLL,1907.92286,N,07255.06667,E,084234.00,A,D*69
$GPRMC,084235.00,A,1907.92287,N,07255.06670,E,0.013,,290512,,,D*79
$GPVTG,,T,,M,0.013,N,0.025,K,D*23
$GPGGA,084235.00,1907.92287,N,07255.06670,E,2,12,0.81,61.4,M,-65.6,M,,0000*4D
$GPGSA,A,3,23,13,19,07,03,10,20,06,08,16,32,11,1.55,0.81,1.32*0E
$GPGSV,4,1,15,01,03,163,20,03,34,059,43,06,21,051,41,07,37,331,40*71
$GPGSV,4,2,15,08,16,296,38,10,26,289,39,11,14,148,37,13,66,355,39*79
$GPGSV,4,3,15,16,10,037,30,19,45,106,43,20,22,187,40,23,70,108,43*72
$GPGSV,4,4,15,28,18,233,24,32,08,166,35,40,60,224,44*42
$GPGLL,1907.92287,N,07255.06670,E,084235.00,A,D*6F
$GPRMC,084236.00,A,1907.92288,N,07255.06672,E,0.008,,290512,,,D*7D
$GPVTG,,T,,M,0.008,N,0.014,K,D*2B
$GPGGA,084236.00,1907.92288,N,07255.06672,E,2,12,0.81,61.5,M,-65.6,M,,0000*42
$GPGSA,A,3,23,13,19,07,03,10,20,06,08,16,32,11,1.55,0.81,1.32*0E
$GPGSV,4,1,15,01,03,163,,03,34,059,43,06,21,051,40,07,37,331,40*72
$GPGSV,4,2,15,08,16,296,38,10,26,289,39,11,14,148,37,13,66,355,39*79
$GPGSV,4,3,15,16,10,037,27,19,45,106,43,20,22,187,40,23,70,108,43*74
$GPGSV,4,4,15,28,18,233,23,32,08,166,35,40,60,224,44*45
$GPGLL,1907.92288,N,07255.06672,E,084236.00,A,D*61
$GPRMC,084237.00,A,1907.92289,N,07255.06674,E,0.015,,290512,,,D*77
$GPVTG,,T,,M,0.015,N,0.027,K,D*27
$GPGGA,084237.00,1907.92289,N,07255.06674,E,2,12,0.81,61.5,M,-65.6,M,,0000*44
$GPGSA,A,3,23,13,19,07,03,10,20,06,08,16,32,11,1.55,0.81,1.32*0E
$GPGSV,4,1,15,01,03,163,20,03,34,059,43,06,21,051,40,07,37,331,40*70
$GPGSV,4,2,15,08,16,296,38,10,26,289,39,11,14,148,37,13,66,355,38*78
$GPGSV,4,3,15,16,10,037,26,19,45,106,43,20,22,187,40,23,70,108,43*75
$GPGSV,4,4,15,28,18,233,,32,08,166,35,40,60,224,44*44
$GPGLL,1907.92289,N,07255.06674,E,084237.00,A,D*67
$GPRMC,084238.00,A,1907.92291,N,07255.06675,E,0.011,,290512,,,D*74
$GPVTG,,T,,M,0.011,N,0.020,K,D*24
$GPGGA,084238.00,1907.92291,N,07255.06675,E,2,12,0.81,61.6,M,-65.6,M,,0000*40
$GPGSA,A,3,23,13,19,07,03,10,20,06,08,16,32,11,1.55,0.81,1.32*0E
$GPGSV,4,1,15,01,03,163,20,03,34,059,43,06,21,051,41,07,37,331,40*71
$GPGSV,4,2,15,08,16,296,38,10,26,289,39,11,14,148,38,13,66,355,38*77
$GPGSV,4,3,15,16,10,037,25,19,45,106,43,20,22,187,40,23,70,108,42*77
$GPGSV,4,4,15,28,18,233,,32,08,166,35,40,60,224,45*45
$GPGLL,1907.92291,N,07255.06675,E,084238.00,A,D*60
$GPRMC,084239.00,A,1907.92293,N,07255.06677,E,0.011,,290512,,,D*75
$GPVTG,,T,,M,0.011,N,0.020,K,D*24
$GPGGA,084239.00,1907.92293,N,07255.06677,E,2,12,0.81,61.8,M,-65.6,M,,0000*4F
$GPGSA,A,3,23,13,19,07,03,10,20,06,08,16,32,11,1.55,0.81,1.32*0E
$GPGSV,4,1,15,01,03,163,20,03,34,059,43,06,21,051,41,07,37,331,40*71
$GPGSV,4,2,15,08,16,296,38,10,26,289,38,11,14,148,38,13,66,355,38*76
$GPGSV,4,3,15,16,10,037,25,19,45,106,43,20,22,187,40,23,70,108,43*76
$GPGSV,4,4,15,28,18,233,,32,08,166,34,40,60,224,45*44
$GPGLL,1907.92293,N,07255.06677,E,084239.00,A,D*61
$GPRMC,084240.00,A,1907.92295,N,07255.06678,E,0.007,,290512,,,D*75
$GPVTG,,T,,M,0.007,N,0.013,K,D*23
$GPGGA,084240.00,1907.92295,N,07255.06678,E,2,12,0.81,61.9,M,-65.6,M,,0000*49
$GPGSA,A,3,23,13,19,07,03,10,20,06,08,16,32,11,1.55,0.81,1.32*0E
$GPGSV,4,1,15,01,03,163,20,03,34,059,43,06,21,051,40,07,37,331,40*70
$GPGSV,4,2,15,08,16,296,38,10,26,289,38,11,14,148,38,13,66,355,37*79
$GPGSV,4,3,15,16,10,037,25,19,45,106,43,20,22,187,40,23,70,108,43*76
$GPGSV,4,4,15,28,18,233,,32,08,166,35,40,60,224,45*45
$GPGLL,1907.92295,N,07255.06678,E,084240.00,A,D*66
$GPRMC,084241.00,A,1907.92297,N,07255.06677,E,0.009,,290512,,,D*77
$GPVTG,,T,,M,0.009,N,0.016,K,D*28
$GPGGA,084241.00,1907.92297,N,07255.06677,E,2,12,0.81,61.9,M,-65.6,M,,0000*45
$GPGSA,A,3,23,13,19,07,03,10,20,06,08,16,32,11,1.55,0.81,1.32*0E
$GPGSV,4,1,15,01,03,163,20,03,34,059,43,06,21,051,40,07,37,331,40*70
$GPGSV,4,2,15,08,16,296,38,10,26,289,38,11,14,148,38,13,66,355,37*79
$GPGSV,4,3,15,16,10,037,25,19,45,106,43,20,22,187,40,23,70,108,43*76
$GPGSV,4,4,15,28,18,233,,32,08,166,36,40,60,224,44*47
$GPGLL,1907.92297,N,07255.06677,E,084241.00,A,D*6A
$GPRMC,084242.00,A,1907.92300,N,07255.06676,E,0.011,,290512,,,D*73
$GPVTG,,T,,M,0.011,N,0.021,K,D*25
$GPGGA,084242.00,1907.92300,N,07255.06676,E,2,12,0.81,62.0,M,-65.6,M,,0000*42
$GPGSA,A,3,23,13,19,07,03,10,20,06,08,16,32,11,1.55,0.81,1.32*0E
$GPGSV,4,1,15,01,03,163,20,03,34,059,43,06,21,051,41,07,37,331,40*71
$GPGSV,4,2,15,08,16,296,38,10,26,289,38,11,14,148,39,13,66,355,37*78
$GPGSV,4,3,15,16,10,037,24,19,45,106,44,20,22,187,40,23,70,108,43*70
$GPGSV,4,4,15,28,18,233,,32,08,166,36,40,60,224,44*47
$GPGLL,1907.92300,N,07255.06676,E,084242.00,A,D*67
$GPRMC,084243.00,A,1907.92303,N,07255.06674,E,0.013,,290512,,,D*71
$GPVTG,,T,,M,0.013,N,0.024,K,D*22
$GPGGA,084243.00,1907.92303,N,07255.06674,E,2,12,0.81,62.1,M,-65.6,M,,0000*43
$GPGSA,A,3,23,13,19,07,03,10,20,06,08,16,32,11,1.55,0.81,1.32*0E
$GPGSV,4,1,15,01,03,163,21,03,34,059,43,06,21,051,40,07,37,331,40*71
$GPGSV,4,2,15,08,16,296,38,10,26,289,38,11,14,148,39,13,66,355,37*78
$GPGSV,4,3,15,16,10,037,23,19,45,106,44,20,22,187,40,23,70,108,43*77
$GPGSV,4,4,15,28,18,233,,32,08,166,35,40,60,224,44*44
$GPGLL,1907.92303,N,07255.06674,E,084243.00,A,D*67
$GPRMC,084244.00,A,1907.92306,N,07255.06672,E,0.006,,290512,,,D*71
$GPVTG,,T,,M,0.006,N,0.011,K,D*20
$GPGGA,084244.00,1907.92306,N,07255.06672,E,2,12,0.81,62.2,M,-65.6,M,,0000*44
$GPGSA,A,3,23,13,19,07,03,10,20,06,08,16,32,11,1.55,0.81,1.32*0E
$GPGSV,4,1,15,01,03,163,21,03,34,059,43,06,21,051,40,07,37,331,40*71
$GPGSV,4,2,15,08,16,296,39,10,26,289,38,11,14,148,39,13,66,355,37*79
$GPGSV,4,3,15,16,10,037,23,19,45,106,44,20,22,187,40,23,70,108,43*77
$GPGSV,4,4,15,28,18,233,,32,08,166,35,40,60,224,44*44
$GPGLL,1907.92306,N,07255.06672,E,084244.00,A,D*63
$GPRMC,084245.00,A,1907.92308,N,07255.06671,E,0.009,,290512,,,D*72
$GPVTG,,T,,M,0.009,N,0.017,K,D*29
$GPGGA,084245.00,1907.92308,N,07255.06671,E,2,12,0.81,62.3,M,-65.6,M,,0000*49
$GPGSA,A,3,23,13,19,07,03,10,20,06,08,16,32,11,1.55,0.81,1.32*0E
$GPGSV,4,1,15,01,03,163,21,03,34,059,43,06,21,051,40,07,37,331,40*71
$GPGSV,4,2,15,08,16,296,39,10,26,289,37,11,14,148,39,13,66,355,37*76
$GPGSV,4,3,15,16,10,037,24,19,45,106,43,20,22,187,40,23,70,108,43*77
$GPGSV,4,4,15,28,18,233,,32,08,166,35,40,60,224,44*44
$GPGLL,1907.92308,N,07255.06671,E,084245.00,A,D*6F
$GPRMC,084246.00,A,1907.92310,N,07255.06671,E,0.007,,290512,,,D*76
$GPVTG,,T,,M,0.007,N,0.014,K,D*24
$GPGGA,084246.00,1907.92310,N,07255.06671,E,2,12,0.81,62.4,M,-65.6,M,,0000*44
$GPGSA,A,3,23,13,19,07,03,10,20,06,08,16,32,11,1.55,0.81,1.32*0E
$GPGSV,4,1,15,01,03,163,20,03,34,059,43,06,21,051,40,07,37,331,40*70
$GPGSV,4,2,15,08,16,296,39,10,26,289,37,11,14,148,39,13,66,355,38*79
$GPGSV,4,3,15,16,10,037,23,19,45,106,43,20,22,187,40,23,70,108,42*71
$GPGSV,4,4,15,28,18,233,,32,08,166,35,40,60,224,44*44
$GPGLL,1907.92310,N,07255.06671,E,084246.00,A,D*65
$GPRMC,084247.00,A,1907.92312,N,07255.06671,E,0.010,,290512,,,D*73
$GPVTG,,T,,M,0.010,N,0.019,K,D*2F
$GPGGA,084247.00,1907.92312,N,07255.06671,E,2,12,0.81,62.6,M,-65.6,M,,0000*45
$GPGSA,A,3,23,13,19,07,03,10,20,06,08,16,32,11,1.55,0.81,1.32*0E
$GPGSV,4,1,15,01,03,163,20,03,34,059,43,06,21,051,40,07,37,331,40*70
$GPGSV,4,2,15,08,16,296,40,10,26,289,38,11,14,148,40,13,66,355,38*76
$GPGSV,4,3,15,16,10,037,22,19,45,106,42,20,22,187,39,23,70,108,42*7F
$GPGSV,4,4,15,28,18,233,,32,08,166,35,40,60,224,44*44
$GPGLL,1907.92312,N,07255.06671,E,084247.00,A,D*66
$GPRMC,084248.00,A,1907.92314,N,07255.06672,E,0.002,,290512,,,D*7A
$GPVTG,,T,,M,0.002,N,0.004,K,D*20
$GPGGA,084248.00,1907.92314,N,07255.06672,E,2,12,0.81,62.8,M,-65.6,M,,0000*41
$GPGSA,A,3,23,13,19,07,03,10,20,06,08,16,32,11,1.55,0.81,1.32*0E
$GPGSV,4,1,15,01,03,163,19,03,34,059,42,06,21,051,40,07,37,331,40*7B
$GPGSV,4,2,15,08,16,296,40,10,26,289,38,11,14,148,40,13,66,355,38*76
$GPGSV,4,3,15,16,10,037,22,19,45,106,42,20,22,187,39,23,70,108,42*7F
$GPGSV,4,4,15,28,18,233,,32,08,166,35,40,60,224,44*44
$GPGLL,1907.92314,N,07255.06672,E,084248.00,A,D*6C
$GPRMC,084249.00,A,1907.92316,N,07255.06673,E,0.024,,290512,,,D*7C
$GPVTG,,T,,M,0.024,N,0.044,K,D*20
$GPGGA,084249.00,1907.92316,N,07255.06673,E,2,12,0.81,63.0,M,-65.6,M,,0000*4A
$GPGSA,A,3,23,13,19,07,03,10,20,06,08,16,32,11,1.55,0.81,1.32*0E
$GPGSV,4,1,15,01,03,163,,03,34,059,42,06,21,051,40,07,37,331,40*73
$GPGSV,4,2,15,08,16,296,40,10,26,289,37,11,14,148,40,13,66,355,38*79
$GPGSV,4,3,15,16,10,037,23,19,45,106,42,20,22,187,39,23,70,108,42*7E
$GPGSV,4,4,15,28,18,233,25,32,08,166,36,40,60,224,44*40
$GPGLL,1907.92316,N,07255.06673,E,084249.00,A,D*6E
$GPRMC,084250.00,A,1907.92317,N,07255.06676,E,0.008,,290512,,,D*7E
$GPVTG,,T,,M,0.008,N,0.014,K,D*2B
$GPGGA,084250.00,1907.92317,N,07255.06676,E,2,12,0.81,63.2,M,-65.6,M,,0000*44
$GPGSA,A,3,23,13,19,07,03,10,20,06,08,16,32,11,1.55,0.81,1.32*0E
$GPGSV,4,1,15,01,03,163,,03,34,059,42,06,21,051,40,07,37,331,41*72
$GPGSV,4,2,15,08,16,296,41,10,26,289,37,11,14,148,40,13,66,355,39*79
$GPGSV,4,3,15,16,10,037,26,19,45,106,42,20,22,187,39,23,70,108,42*7B
$GPGSV,4,4,15,28,18,233,25,32,08,166,36,40,60,224,44*40
$GPGLL,1907.92317,N,07255.06676,E,084250.00,A,D*62
$GPRMC,084251.00,A,1907.92319,N,07255.06682,E,0.002,,290512,,,D*70
$GPVTG,,T,,M,0.002,N,0.003,K,D*27
$GPGGA,084251.00,1907.92319,N,07255.06682,E,2,12,0.81,63.4,M,-65.6,M,,0000*46
$GPGSA,A,3,23,13,19,07,03,10,20,06,08,16,32,11,1.55,0.81,1.32*0E
$GPGSV,4,1,15,01,03,163,,03,34,059,42,06,21,051,40,07,37,331,41*72
$GPGSV,4,2,15,08,16,296,41,10,26,289,37,11,14,148,40,13,66,355,39*79
$GPGSV,4,3,15,16,10,037,27,19,45,106,42,20,22,187,39,23,70,108,42*7A
$GPGSV,4,4,15,28,18,233,25,32,08,166,37,40,60,224,44*41
$GPGLL,1907.92319,N,07255.06682,E,084251.00,A,D*66
$GPRMC,084252.00,A,1907.92319,N,07255.06688,E,0.012,,290512,,,D*78
$GPVTG,,T,,M,0.012,N,0.022,K,D*25
$GPGGA,084252.00,1907.92319,N,07255.06688,E,2,12,0.81,63.7,M,-65.6,M,,0000*4C
$GPGSA,A,3,23,13,19,07,03,10,20,06,08,16,32,11,1.55,0.81,1.32*0E
$GPGSV,4,1,15,01,03,163,,03,34,059,42,06,21,051,39,07,37,331,41*7C
$GPGSV,4,2,15,08,16,296,41,10,26,289,37,11,14,148,40,13,66,355,40*77
$GPGSV,4,3,15,16,10,037,27,19,45,106,41,20,22,187,39,23,70,108,42*79
$GPGSV,4,4,15,28,18,233,26,32,08,166,37,40,60,224,44*42
$GPGLL,1907.92319,N,07255.06688,E,084252.00,A,D*6F
$GPRMC,084253.00,A,1907.92319,N,07255.06695,E,0.009,,290512,,,D*7F
$GPVTG,,T,,M,0.009,N,0.016,K,D*28
$GPGGA,084253.00,1907.92319,N,07255.06695,E,2,12,0.81,63.9,M,-65.6,M,,0000*4F
$GPGSA,A,3,23,13,19,07,03,10,20,06,08,16,32,11,1.55,0.81,1.32*0E
$GPGSV,4,1,15,01,03,163,,03,34,059,42,06,21,051,39,07,37,331,41*7C
$GPGSV,4,2,15,08,16,296,41,10,26,289,37,11,14,148,40,13,66,355,40*77
$GPGSV,4,3,15,16,10,037,27,19,45,106,41,20,22,187,39,23,70,108,42*79
$GPGSV,4,4,15,28,18,233,27,32,08,166,36,40,60,224,44*42
$GPGLL,1907.92319,N,07255.06695,E,084253.00,A,D*62
$GPRMC,084254.00,A,1907.92318,N,07255.06701,E,0.004,,290512,,,D*78
$GPVTG,,T,,M,0.004,N,0.008,K,D*2A
$GPGGA,084254.00,1907.92318,N,07255.06701,E,2,12,0.81,64.0,M,-65.6,M,,0000*4B
$GPGSA,A,3,23,13,19,07,03,10,20,06,08,16,32,11,1.55,0.81,1.32*0E
$GPGSV,4,1,15,01,03,163,,03,34,059,42,06,21,051,39,07,37,331,41*7C
$GPGSV,4,2,15,08,16,296,42,10,26,289,38,11,14,148,40,13,66,355,40*7B
$GPGSV,4,3,15,16,10,037,27,19,45,106,41,20,22,187,39,23,70,108,42*79
$GPGSV,4,4,15,28,18,233,27,32,08,166,36,40,60,224,44*42
$GPGLL,1907.92318,N,07255.06701,E,084254.00,A,D*68
$GPRMC,084255.00,A,1907.92317,N,07255.06708,E,0.003,,290512,,,D*78
$GPVTG,,T,,M,0.003,N,0.006,K,D*23
$GPGGA,084255.00,1907.92317,N,07255.06708,E,2,12,0.81,64.1,M,-65.6,M,,0000*4D
$GPGSA,A,3,23,13,19,07,03,10,20,06,08,16,32,11,1.55,0.81,1.32*0E
$GPGSV,4,1,15,01,03,162,,03,34,059,42,06,21,051,39,07,37,331,41*7D
$GPGSV,4,2,15,08,16,296,42,10,26,289,37,11,14,148,40,13,66,355,41*75
$GPGSV,4,3,15,16,10,037,28,19,45,106,41,20,22,187,39,23,70,108,42*76
$GPGSV,4,4,15,28,18,233,27,32,08,166,35,40,60,224,44*41
$GPGLL,1907.92317,N,07255.06708,E,084255.00,A,D*6F
$GPRMC,084256.00,A,1907.92315,N,07255.06717,E,0.010,,290512,,,D*75
$GPVTG,,T,,M,0.010,N,0.019,K,D*2F
$GPGGA,084256.00,1907.92315,N,07255.06717,E,2,12,0.81,64.3,M,-65.6,M,,0000*40
$GPGSA,A,3,23,13,19,07,03,10,20,06,08,16,32,11,1.55,0.81,1.32*0E
$GPGSV,4,1,15,01,03,162,,03,34,059,41,06,21,051,39,07,37,331,41*7E
$GPGSV,4,2,15,08,16,296,42,10,26,289,38,11,14,148,40,13,66,355,41*7A
$GPGSV,4,3,15,16,10,037,28,19,45,106,41,20,22,187,39,23,70,108,42*76
$GPGSV,4,4,15,28,18,233,28,32,08,166,35,40,60,224,44*4E
$GPGLL,1907.92315,N,07255.06717,E,084256.00,A,D*60
$GPRMC,084257.00,A,1907.92312,N,07255.06724,E,0.009,,290512,,,D*7B
$GPVTG,,T,,M,0.009,N,0.017,K,D*29
$GPGGA,084257.00,1907.92312,N,07255.06724,E,2,12,0.81,64.4,M,-65.6,M,,0000*41
$GPGSA,A,3,23,13,19,07,03,10,20,06,08,16,32,11,1.55,0.81,1.32*0E
$GPGSV,4,1,15,01,03,162,,03,34,059,42,06,21,051,40,07,37,331,41*73
$GPGSV,4,2,15,08,16,296,42,10,26,289,38,11,14,148,41,13,66,355,40*7A
$GPGSV,4,3,15,16,10,037,29,19,45,106,42,20,22,187,38,23,70,108,42*75
$GPGSV,4,4,15,28,18,233,30,32,08,166,35,40,60,224,44*47
$GPGLL,1907.92312,N,07255.06724,E,084257.00,A,D*66
$GPRMC,084258.00,A,1907.92309,N,07255.06729,E,0.003,,290512,,,D*79
$GPVTG,,T,,M,0.003,N,0.006,K,D*23
$GPGGA,084258.00,1907.92309,N,07255.06729,E,2,12,0.81,64.5,M,-65.6,M,,0000*48
$GPGSA,A,3,23,13,19,07,03,10,20,06,08,16,32,11,1.55,0.81,1.32*0E
$GPGSV,4,1,15,01,03,162,,03,34,059,41,06,21,051,40,07,37,331,41*70
$GPGSV,4,2,15,08,16,296,42,10,26,289,37,11,14,148,41,13,66,355,40*75
$GPGSV,4,3,15,16,10,037,31,19,45,106,42,20,22,187,38,23,70,108,42*7C
$GPGSV,4,4,15,28,18,233,30,32,08,166,35,40,60,224,44*47
$GPGLL,1907.92309,N,07255.06729,E,084258.00,A,D*6E
$GPRMC,084259.00,A,1907.92303,N,07255.06731,E,0.005,,290512,,,D*7D
$GPVTG,,T,,M,0.005,N,0.008,K,D*2B
$GPGGA,084259.00,1907.92303,N,07255.06731,E,2,12,0.71,64.6,M,-65.6,M,,0000*46
$GPGSA,A,3,23,13,19,07,03,10,20,06,08,16,32,11,1.34,0.71,1.13*05
$GPGSV,4,1,15,01,03,162,,03,34,059,42,06,21,051,40,07,37,331,41*73
$GPGSV,4,2,15,08,16,296,43,10,26,289,37,11,14,148,41,13,66,355,40*74
$GPGSV,4,3,15,16,10,037,31,19,45,106,42,20,22,187,38,23,70,108,42*7C
$GPGSV,4,4,15,28,18,233,30,32,08,166,35,40,60,224,44*47
$GPGLL,1907.92303,N,07255.06731,E,084259.00,A,D*6C
$GPRMC,084300.00,A,1907.92297,N,07255.06734,E,0.005,,290512,,,D*79
$GPVTG,,T,,M,0.005,N,0.009,K,D*2A
$GPGGA,084300.00,1907.92297,N,07255.06734,E,2,12,0.71,64.8,M,-65.6,M,,0000*4C
$GPGSA,A,3,23,13,19,07,03,10,20,06,08,16,32,11,1.34,0.71,1.13*05
$GPGSV,4,1,15,01,03,162,,03,34,059,42,06,20,051,40,07,37,331,41*72
$GPGSV,4,2,15,08,16,296,43,10,26,289,38,11,14,148,41,13,66,355,40*7B
$GPGSV,4,3,15,16,10,037,32,19,45,106,42,20,22,187,38,23,70,108,41*7C
$GPGSV,4,4,15,28,18,233,30,32,08,166,35,40,60,224,44*47
$GPGLL,1907.92297,N,07255.06734,E,084300.00,A,D*68
$GPRMC,084301.00,A,1907.92291,N,07255.06733,E,0.010,,290512,,,D*7D
$GPVTG,,T,,M,0.010,N,0.019,K,D*2F
$GPGGA,084301.00,1907.92291,N,07255.06733,E,2,12,0.71,65.0,M,-65.6,M,,0000*45
$GPGSA,A,3,23,13,19,07,03,28,10,20,06,08,16,32,1.34,0.71,1.13*0F
$GPGSV,4,1,15,01,03,162,,03,34,059,42,06,20,051,41,07,37,332,41*70
$GPGSV,4,2,15,08,16,296,43,10,26,289,38,11,14,148,41,13,66,355,40*7B
$GPGSV,4,3,15,16,10,037,33,19,45,106,42,20,22,187,38,23,70,108,41*7D
$GPGSV,4,4,15,28,18,233,29,32,08,166,35,40,60,224,45*4E
$GPGLL,1907.92291,N,07255.06733,E,084301.00,A,D*68
$GPRMC,084302.00,A,1907.92283,N,07255.06730,E,0.009,,290512,,,D*76
$GPVTG,,T,,M,0.009,N,0.017,K,D*29
$GPGGA,084302.00,1907.92283,N,07255.06730,E,2,12,0.71,65.3,M,-65.6,M,,0000*45
$GPGSA,A,3,23,13,19,07,03,28,10,20,06,08,16,32,1.34,0.71,1.13*0F
$GPGSV,4,1,15,01,03,162,,03,34,059,42,06,20,051,41,07,37,332,41*70
$GPGSV,4,2,15,08,16,296,43,10,26,289,38,11,14,148,41,13,66,355,40*7B
$GPGSV,4,3,15,16,10,037,34,19,45,106,42,20,22,187,38,23,70,108,41*7A
$GPGSV,4,4,15,28,18,233,29,32,08,166,34,40,60,224,45*4F
$GPGLL,1907.92283,N,07255.06730,E,084302.00,A,D*6B
$GPRMC,084303.00,A,1907.92276,N,07255.06727,E,0.005,,290512,,,D*77
$GPVTG,,T,,M,0.005,N,0.009,K,D*2A
$GPGGA,084303.00,1907.92276,N,07255.06727,E,2,12,0.71,65.5,M,-65.6,M,,0000*4E
$GPGSA,A,3,23,13,19,07,03,28,10,20,06,08,16,32,1.34,0.71,1.13*0F
